[{"Sensor_Name":"Bourke Street Mall (North)","latitude":"-37.8134944","longitude":"144.9651532","location":"(-37.8134944, 144.96515324)"},
  {"Sensor_Name":"Bourke St-Russell St (West)","latitude":"-37.81244703","longitude":"144.9677876","location":"(-37.81244703, 144.96778757)"},
  {"Sensor_Name":"Bourke Street Mall (South)","latitude":"-37.81380667","longitude":"144.9651672","location":"(-37.81380667, 144.96516719)"},
  {"Sensor_Name":"Chinatown-Lt Bourke St (South)","latitude":"-37.81172913","longitude":"144.9682466","location":"(-37.81172913, 144.9682466)"},
  {"Sensor_Name":"Chinatown-Swanston St (North)","latitude":"-37.81237202","longitude":"144.9655067","location":"(-37.81237202, 144.96550671)"},
  {"Sensor_Name":"City Square","latitude":"-37.81573742","longitude":"144.9668572","location":"(-37.81573742, 144.96685718)"},
  {"Sensor_Name":"Flagstaff Station","latitude":"-37.81239679","longitude":"144.9565265","location":"(-37.81239679, 144.95652653)"},
  {"Sensor_Name":"Flinders St-Elizabeth St (East)","latitude":"-37.81786445","longitude":"144.9650682","location":"(-37.81786445, 144.96506823)"},
  {"Sensor_Name":"Flinders Street Station Underpass","latitude":"-37.81911704","longitude":"144.9655826","location":"(-37.81911704, 144.96558256)"},
  {"Sensor_Name":"Melbourne Central","latitude":"-37.81101523","longitude":"144.9642949","location":"(-37.81101523, 144.96429485)"},
  {"Sensor_Name":"Southern Cross Station","latitude":"-37.81982992","longitude":"144.9510256","location":"(-37.81982992, 144.95102556)"}]